<?xml version="1.0" encoding="UTF-8"?>
<kml xmlns="http://earth.google.com/kml/2.0">
<Folder>
<Placemark>
<name>大宮区第１投票区１－１</name>
<Point>
<coordinates>139.614112993302,35.9151199030517,0</coordinates>
</Point>
</Placemark>
<Placemark>
<name>大宮区第１投票区１－２</name>
<Point>
<coordinates>139.615684168361,35.9137011761151,0</coordinates>
</Point>
</Placemark>
<Placemark>
<name>大宮区第１投票区１－３</name>
<Point>
<coordinates>139.611123564014,35.914367742409,0</coordinates>
</Point>
</Placemark>
<Placemark>
<name>大宮区第１投票区１－４</name>
<Point>
<coordinates>139.617033029472,35.9186717692957,0</coordinates>
</Point>
</Placemark>
<Placemark>
<name>大宮区第１投票区１－５</name>
<Point>
<coordinates>139.617936521983,35.9190076983344,0</coordinates>
</Point>
</Placemark>
<Placemark>
<name>大宮区第１投票区１－６</name>
<Point>
<coordinates>139.613362363404,35.9145411352991,0</coordinates>
</Point>
</Placemark>
<Placemark>
<name>大宮区第１投票区１－７</name>
<Point>
<coordinates>139.612637745285,35.9177254820738,0</coordinates>
</Point>
</Placemark>
<Placemark>
<name>大宮区第２投票区２－１</name>
<Point>
<coordinates>139.613710870628,35.9129637162515,0</coordinates>
</Point>
</Placemark>
<Placemark>
<name>大宮区第２投票区２－２</name>
<Point>
<coordinates>139.614921093952,35.9089836442561,0</coordinates>
</Point>
</Placemark>
<Placemark>
<name>大宮区第２投票区２－３</name>
<Point>
<coordinates>139.614800832623,35.9095662289961,0</coordinates>
</Point>
</Placemark>
<Placemark>
<name>大宮区第２投票区２－４</name>
<Point>
<coordinates>139.617611039804,35.9105751275969,0</coordinates>
</Point>
</Placemark>
<Placemark>
<name>大宮区第３投票区３－７</name>
<Point>
<coordinates>139.609468573176,35.915848985991,0</coordinates>
</Point>
</Placemark>
<Placemark>
<name>大宮区第３投票区３－６</name>
<Point>
<coordinates>139.607176407293,35.9150287125203,0</coordinates>
</Point>
</Placemark>
<Placemark>
<name>大宮区第３投票区３－２</name>
<Point>
<coordinates>139.60551345541,35.9151597775697,0</coordinates>
</Point>
</Placemark>
<Placemark>
<name>大宮区第３投票区３－５</name>
<Point>
<coordinates>139.607374405242,35.9137054754245,0</coordinates>
</Point>
</Placemark>
<Placemark>
<name>大宮区第３投票区３－４</name>
<Point>
<coordinates>139.609718163526,35.9122044535634,0</coordinates>
</Point>
</Placemark>
<Placemark>
<name>大宮区第３投票区３－１</name>
<Point>
<coordinates>139.609816570511,35.9110948229297,0</coordinates>
</Point>
</Placemark>
<Placemark>
<name>大宮区第３投票区３－３</name>
<Point>
<coordinates>139.612255453777,35.9067384964498,0</coordinates>
</Point>
</Placemark>
<Placemark>
<name>大宮区第２投票区２－６</name>
<Point>
<coordinates>139.612605870999,35.9092159213162,0</coordinates>
</Point>
</Placemark>
<Placemark>
<name>大宮区第４投票区４－６</name>
<Point>
<coordinates>139.600442547329,35.9143900441331,0</coordinates>
</Point>
</Placemark>
<Placemark>
<name>大宮区第４投票区４－５</name>
<Point>
<coordinates>139.600761558325,35.9133624200018,0</coordinates>
</Point>
</Placemark>
<Placemark>
<name>大宮区第４投票区４－４</name>
<Point>
<coordinates>139.601873671921,35.9089039522098,0</coordinates>
</Point>
</Placemark>
<Placemark>
<name>大宮区第４投票区４－２</name>
<Point>
<coordinates>139.606009697712,35.9085888145895,0</coordinates>
</Point>
</Placemark>
<Placemark>
<name>大宮区第４投票区４－８</name>
<Point>
<coordinates>139.60273963278,35.9074135475478,0</coordinates>
</Point>
</Placemark>
<Placemark>
<name>大宮区第４投票区４－３</name>
<Point>
<coordinates>139.606451941383,35.9090685304722,0</coordinates>
</Point>
</Placemark>
<Placemark>
<name>大宮区第４投票区４－７</name>
<Point>
<coordinates>139.604730116527,35.9092570690958,0</coordinates>
</Point>
</Placemark>
<Placemark>
<name>大宮区第５投票区５－８</name>
<Point>
<coordinates>139.602296914095,35.9050499351389,0</coordinates>
</Point>
</Placemark>
<Placemark>
<name>大宮区第５投票区５－７</name>
<Point>
<coordinates>139.599729465169,35.9045420227573,0</coordinates>
</Point>
</Placemark>
<Placemark>
<name>大宮区第５投票区５－２</name>
<Point>
<coordinates>139.605061024547,35.9040605067581,0</coordinates>
</Point>
</Placemark>
<Placemark>
<name>大宮区第５投票区５－３</name>
<Point>
<coordinates>139.604569822902,35.9028972089122,0</coordinates>
</Point>
</Placemark>
<Placemark>
<name>大宮区第５投票区５－４</name>
<Point>
<coordinates>139.605845955007,35.9020051468664,0</coordinates>
</Point>
</Placemark>
<Placemark>
<name>大宮区第５投票区５－５</name>
<Point>
<coordinates>139.602115246113,35.9010045689038,0</coordinates>
</Point>
</Placemark>
<Placemark>
<name>大宮区第５投票区５－６</name>
<Point>
<coordinates>139.601506112128,35.9009094753162,0</coordinates>
</Point>
</Placemark>
<Placemark>
<name>大宮区第５投票区５－１</name>
<Point>
<coordinates>139.603880682435,35.9039928202928,0</coordinates>
</Point>
</Placemark>
<Placemark>
<name>大宮区第６投票区６－７</name>
<Point>
<coordinates>139.603138288471,35.8901858894084,0</coordinates>
</Point>
</Placemark>
<Placemark>
<name>大宮区第６投票区６－３</name>
<Point>
<coordinates>139.5985929587,35.8986329889812,0</coordinates>
</Point>
</Placemark>
<Placemark>
<name>大宮区第６投票区６－６</name>
<Point>
<coordinates>139.599831308753,35.8979312787183,0</coordinates>
</Point>
</Placemark>
<Placemark>
<name>大宮区第６投票区６－８</name>
<Point>
<coordinates>139.600409053909,35.8976529861691,0</coordinates>
</Point>
</Placemark>
<Placemark>
<name>大宮区第６投票区６－１</name>
<Point>
<coordinates>139.600063865365,35.8962582181517,0</coordinates>
</Point>
</Placemark>
<Placemark>
<name>大宮区第６投票区６－２</name>
<Point>
<coordinates>139.60040202986,35.895361773531,0</coordinates>
</Point>
</Placemark>
<Placemark>
<name>大宮区第６投票区６－４</name>
<Point>
<coordinates>139.598505096138,35.8965752452486,0</coordinates>
</Point>
</Placemark>
<Placemark>
<name>大宮区第６投票区６－５</name>
<Point>
<coordinates>139.601589482922,35.895225084465,0</coordinates>
</Point>
</Placemark>
<Placemark>
<name>大宮区第７投票区７－７</name>
<Point>
<coordinates>139.603874935644,35.8988065192242,0</coordinates>
</Point>
</Placemark>
<Placemark>
<name>大宮区第７投票区７－３</name>
<Point>
<coordinates>139.610083311956,35.8964800618853,0</coordinates>
</Point>
</Placemark>
<Placemark>
<name>大宮区第７投票区７－１</name>
<Point>
<coordinates>139.609034775111,35.8978705840662,0</coordinates>
</Point>
</Placemark>
<Placemark>
<name>大宮区第７投票区７－５</name>
<Point>
<coordinates>139.609751091711,35.8963633516196,0</coordinates>
</Point>
</Placemark>
<Placemark>
<name>大宮区第７投票区７－４</name>
<Point>
<coordinates>139.610905899154,35.895858133078,0</coordinates>
</Point>
</Placemark>
<Placemark>
<name>大宮区第７投票区７－２</name>
<Point>
<coordinates>139.611806175692,35.8980810526643,0</coordinates>
</Point>
</Placemark>
<Placemark>
<name>大宮区第８投票区８－５</name>
<Point>
<coordinates>139.613264165179,35.8984260610147,0</coordinates>
</Point>
</Placemark>
<Placemark>
<name>大宮区第８投票区８－２</name>
<Point>
<coordinates>139.614058998706,35.8991092862233,0</coordinates>
</Point>
</Placemark>
<Placemark>
<name>大宮区第８投票区８－６</name>
<Point>
<coordinates>139.609905350495,35.9013484828468,0</coordinates>
</Point>
</Placemark>
<Placemark>
<name>大宮区第８投票区８－１</name>
<Point>
<coordinates>139.611571195753,35.9000740158544,0</coordinates>
</Point>
</Placemark>
<Placemark>
<name>大宮区第８投票区８－４</name>
<Point>
<coordinates>139.613030213571,35.8996209852315,0</coordinates>
</Point>
</Placemark>
<Placemark>
<name>大宮区第８投票区８－７</name>
<Point>
<coordinates>139.613739939941,35.9029646217542,0</coordinates>
</Point>
</Placemark>
<Placemark>
<name>大宮区第８投票区８－３</name>
<Point>
<coordinates>139.608960424602,35.9027052154767,0</coordinates>
</Point>
</Placemark>
<Placemark>
<name>大宮区第９投票区９－４</name>
<Point>
<coordinates>139.611920763751,35.8974288761231,0</coordinates>
</Point>
</Placemark>
<Placemark>
<name>大宮区第９投票区９－６</name>
<Point>
<coordinates>139.617632596407,35.8946293508151,0</coordinates>
</Point>
</Placemark>
<Placemark>
<name>大宮区第９投票区９－３</name>
<Point>
<coordinates>139.616840201468,35.8958628477912,0</coordinates>
</Point>
</Placemark>
<Placemark>
<name>大宮区第９投票区９－７</name>
<Point>
<coordinates>139.618755028969,35.8958312221695,0</coordinates>
</Point>
</Placemark>
<Placemark>
<name>大宮区第９投票区９－１</name>
<Point>
<coordinates>139.616029101044,35.8970004932391,0</coordinates>
</Point>
</Placemark>
<Placemark>
<name>大宮区第９投票区９－２</name>
<Point>
<coordinates>139.617540679414,35.8968243934046,0</coordinates>
</Point>
</Placemark>
<Placemark>
<name>大宮区第９投票区９－５</name>
<Point>
<coordinates>139.618054860339,35.8979035860584,0</coordinates>
</Point>
</Placemark>
<Placemark>
<name>大宮区第１０投票区１０－１</name>
<Point>
<coordinates>139.616373117595,35.9055043260121,0</coordinates>
</Point>
</Placemark>
<Placemark>
<name>大宮区第１０投票区１０－２</name>
<Point>
<coordinates>139.616157680298,35.904392769346,0</coordinates>
</Point>
</Placemark>
<Placemark>
<name>大宮区第１０投票区１０－３</name>
<Point>
<coordinates>139.615724349267,35.9052183299246,0</coordinates>
</Point>
</Placemark>
<Placemark>
<name>大宮区第１０投票区１０－４</name>
<Point>
<coordinates>139.614238392199,35.905404818492,0</coordinates>
</Point>
</Placemark>
<Placemark>
<name>大宮区第１０投票区１０－６</name>
<Point>
<coordinates>139.616361346633,35.9028356282221,0</coordinates>
</Point>
</Placemark>
<Placemark>
<name>大宮区第１０投票区１０－５</name>
<Point>
<coordinates>139.616117307924,35.9031528180345,0</coordinates>
</Point>
</Placemark>
<Placemark>
<name>大宮区第１０投票区１０－７</name>
<Point>
<coordinates>139.61503247942,35.9039274423441,0</coordinates>
</Point>
</Placemark>
<Placemark>
<name>大宮区第１１投票区１１－１</name>
<Point>
<coordinates>139.621246955275,35.9053639516179,0</coordinates>
</Point>
</Placemark>
<Placemark>
<name>大宮区第１１投票区１１－３</name>
<Point>
<coordinates>139.618568370414,35.914816723745,0</coordinates>
</Point>
</Placemark>
<Placemark>
<name>大宮区第１１投票区１１－７</name>
<Point>
<coordinates>139.620550005166,35.9090405298168,0</coordinates>
</Point>
</Placemark>
<Placemark>
<name>大宮区第１１投票区１１－６</name>
<Point>
<coordinates>139.617237531838,35.9086663287614,0</coordinates>
</Point>
</Placemark>
<Placemark>
<name>大宮区第１２投票区１２－１</name>
<Point>
<coordinates>139.62748113365,35.9069799896372,0</coordinates>
</Point>
</Placemark>
<Placemark>
<name>大宮区第１２投票区１２－６</name>
<Point>
<coordinates>139.631748782839,35.9075015318794,0</coordinates>
</Point>
</Placemark>
<Placemark>
<name>大宮区第１２投票区１２－８</name>
<Point>
<coordinates>139.630199540238,35.9026230516917,0</coordinates>
</Point>
</Placemark>
<Placemark>
<name>大宮区第１２投票区１２－３</name>
<Point>
<coordinates>139.631197943314,35.9035318416283,0</coordinates>
</Point>
</Placemark>
<Placemark>
<name>大宮区第１２投票区１２－７</name>
<Point>
<coordinates>139.631093501344,35.9050445591875,0</coordinates>
</Point>
</Placemark>
<Placemark>
<name>大宮区第１３投票区１３－１</name>
<Point>
<coordinates>139.627103195301,35.9111767716802,0</coordinates>
</Point>
</Placemark>
<Placemark>
<name>大宮区第１３投票区１３－４</name>
<Point>
<coordinates>139.62852109874,35.9100415327455,0</coordinates>
</Point>
</Placemark>
<Placemark>
<name>大宮区第１３投票区１３－６</name>
<Point>
<coordinates>139.628754779025,35.9112409777773,0</coordinates>
</Point>
</Placemark>
<Placemark>
<name>大宮区第１３投票区１３－３</name>
<Point>
<coordinates>139.629846109756,35.9115919193362,0</coordinates>
</Point>
</Placemark>
<Placemark>
<name>大宮区第１３投票区１３－５</name>
<Point>
<coordinates>139.627722147218,35.912144425169,0</coordinates>
</Point>
</Placemark>
<Placemark>
<name>大宮区第１３投票区１３－２</name>
<Point>
<coordinates>139.630485067099,35.9133743995276,0</coordinates>
</Point>
</Placemark>
<Placemark>
<name>大宮区第１３投票区１３－７</name>
<Point>
<coordinates>139.627986467449,35.9163625844733,0</coordinates>
</Point>
</Placemark>
<Placemark>
<name>大宮区第１４投票区１４－２</name>
<Point>
<coordinates>139.621956575689,35.9146860937251,0</coordinates>
</Point>
</Placemark>
<Placemark>
<name>大宮区第１４投票区１４－３</name>
<Point>
<coordinates>139.622445074705,35.9148198995614,0</coordinates>
</Point>
</Placemark>
<Placemark>
<name>大宮区第１４投票区１４－４</name>
<Point>
<coordinates>139.622359460669,35.915098712284,0</coordinates>
</Point>
</Placemark>
<Placemark>
<name>大宮区第１４投票区１４－１</name>
<Point>
<coordinates>139.625877647129,35.9155178339145,0</coordinates>
</Point>
</Placemark>
<Placemark>
<name>大宮区第１４投票区１４－６</name>
<Point>
<coordinates>139.626775607649,35.9147005192882,0</coordinates>
</Point>
</Placemark>
<Placemark>
<name>大宮区第１４投票区１４－５</name>
<Point>
<coordinates>139.625877492732,35.9169773648663,0</coordinates>
</Point>
</Placemark>
<Placemark>
<name>大宮区第１４投票区１４－７</name>
<Point>
<coordinates>139.624901201298,35.9176091319686,0</coordinates>
</Point>
</Placemark>
<Placemark>
<name>大宮区第１５投票区１５－７</name>
<Point>
<coordinates>139.63166260466,35.9209843682966,0</coordinates>
</Point>
</Placemark>
<Placemark>
<name>大宮区第１５投票区１５－１</name>
<Point>
<coordinates>139.632436316022,35.9206629877752,0</coordinates>
</Point>
</Placemark>
<Placemark>
<name>大宮区第１５投票区１５－２</name>
<Point>
<coordinates>139.631397134928,35.9224979828461,0</coordinates>
</Point>
</Placemark>
<Placemark>
<name>大宮区第１５投票区１５－４</name>
<Point>
<coordinates>139.636121608286,35.9218261400737,0</coordinates>
</Point>
</Placemark>
<Placemark>
<name>大宮区第１５投票区１５－３</name>
<Point>
<coordinates>139.636371251079,35.9212956641093,0</coordinates>
</Point>
</Placemark>
<Placemark>
<name>大宮区第１５投票区１５－５</name>
<Point>
<coordinates>139.63676731097,35.9208381650364,0</coordinates>
</Point>
</Placemark>
<Placemark>
<name>大宮区第１５投票区１５－６</name>
<Point>
<coordinates>139.638750375966,35.9211032328048,0</coordinates>
</Point>
</Placemark>
<Placemark>
<name>大宮区第１６投票区１６－４</name>
<Point>
<coordinates>139.637944775434,35.9174135739384,0</coordinates>
</Point>
</Placemark>
<Placemark>
<name>大宮区第１６投票区１６－７</name>
<Point>
<coordinates>139.631620971639,35.9162149774607,0</coordinates>
</Point>
</Placemark>
<Placemark>
<name>大宮区第１６投票区１６－１</name>
<Point>
<coordinates>139.634861534393,35.9135927156328,0</coordinates>
</Point>
</Placemark>
<Placemark>
<name>大宮区第１６投票区１６－３</name>
<Point>
<coordinates>139.635933509382,35.9131509356106,0</coordinates>
</Point>
</Placemark>
<Placemark>
<name>大宮区第１６投票区１６－６</name>
<Point>
<coordinates>139.636550251276,35.9135394319568,0</coordinates>
</Point>
</Placemark>
<Placemark>
<name>大宮区第１６投票区１６－２</name>
<Point>
<coordinates>139.637946283142,35.9131957791939,0</coordinates>
</Point>
</Placemark>
<Placemark>
<name>大宮区第１６投票区１６－５</name>
<Point>
<coordinates>139.631017057889,35.9112683355573,0</coordinates>
</Point>
</Placemark>
<Placemark>
<name>大宮区第１７投票区１７－１</name>
<Point>
<coordinates>139.635141158814,35.90774197677,0</coordinates>
</Point>
</Placemark>
<Placemark>
<name>大宮区第１７投票区１７－５</name>
<Point>
<coordinates>139.635656808654,35.9092457143581,0</coordinates>
</Point>
</Placemark>
<Placemark>
<name>大宮区第１７投票区１７－６</name>
<Point>
<coordinates>139.637491130069,35.9104046831699,0</coordinates>
</Point>
</Placemark>
<Placemark>
<name>大宮区第１７投票区１７－３</name>
<Point>
<coordinates>139.636773723123,35.9061524496445,0</coordinates>
</Point>
</Placemark>
<Placemark>
<name>大宮区第１８投票区１８－４</name>
<Point>
<coordinates>139.646204909269,35.9080194021835,0</coordinates>
</Point>
</Placemark>
<Placemark>
<name>大宮区第１８投票区１８－１</name>
<Point>
<coordinates>139.645409724437,35.9113596832859,0</coordinates>
</Point>
</Placemark>
<Placemark>
<name>大宮区第１８投票区１８－３</name>
<Point>
<coordinates>139.647826139026,35.9114785412302,0</coordinates>
</Point>
</Placemark>
<Placemark>
<name>大宮区第１８投票区１８－５</name>
<Point>
<coordinates>139.646047642573,35.9123672014684,0</coordinates>
</Point>
</Placemark>
<Placemark>
<name>大宮区第１７投票区１７－４</name>
<Point>
<coordinates>139.641799888307,35.9111204435666,0</coordinates>
</Point>
</Placemark>
<Placemark>
<name>大宮区第１８投票区１８－６</name>
<Point>
<coordinates>139.642196205144,35.9112589794223,0</coordinates>
</Point>
</Placemark>
<Placemark>
<name>大宮区第１９投票区１９－３</name>
<Point>
<coordinates>139.643088260861,35.9087452182259,0</coordinates>
</Point>
</Placemark>
<Placemark>
<name>大宮区第１９投票区１９－２</name>
<Point>
<coordinates>139.643462055081,35.90467267066,0</coordinates>
</Point>
</Placemark>
<Placemark>
<name>大宮区第１９投票区１９－１</name>
<Point>
<coordinates>139.644703391665,35.9045932362108,0</coordinates>
</Point>
</Placemark>
<Placemark>
<name>大宮区第１９投票区１９－６</name>
<Point>
<coordinates>139.64410136879,35.9041770432253,0</coordinates>
</Point>
</Placemark>
<Placemark>
<name>大宮区第１９投票区１９－７</name>
<Point>
<coordinates>139.645246112728,35.9020284318766,0</coordinates>
</Point>
</Placemark>
<Placemark>
<name>大宮区第１９投票区１９－５</name>
<Point>
<coordinates>139.642313876249,35.9024519387283,0</coordinates>
</Point>
</Placemark>
<Placemark>
<name>大宮区第２０投票区２０－３</name>
<Point>
<coordinates>139.636151363808,35.9003692636797,0</coordinates>
</Point>
</Placemark>
<Placemark>
<name>大宮区第２０投票区２０－１</name>
<Point>
<coordinates>139.636228003991,35.8989476199771,0</coordinates>
</Point>
</Placemark>
<Placemark>
<name>大宮区第２０投票区２０－４</name>
<Point>
<coordinates>139.637903546587,35.8983583597595,0</coordinates>
</Point>
</Placemark>
<Placemark>
<name>大宮区第２０投票区２０－５</name>
<Point>
<coordinates>139.639652129839,35.8986526850112,0</coordinates>
</Point>
</Placemark>
<Placemark>
<name>大宮区第２０投票区２０－７</name>
<Point>
<coordinates>139.642006272808,35.9009147593843,0</coordinates>
</Point>
</Placemark>
<Placemark>
<name>大宮区第２０投票区２０－６</name>
<Point>
<coordinates>139.639946038971,35.9014708292944,0</coordinates>
</Point>
</Placemark>
<Placemark>
<name>大宮区第２０投票区２０－２</name>
<Point>
<coordinates>139.63887842394,35.9035099124842,0</coordinates>
</Point>
</Placemark>
<Placemark>
<name>大宮区第２１投票区２１－６</name>
<Point>
<coordinates>139.631279675383,35.901755714737,0</coordinates>
</Point>
</Placemark>
<Placemark>
<name>大宮区第２１投票区２１－３</name>
<Point>
<coordinates>139.633108909997,35.9007059266661,0</coordinates>
</Point>
</Placemark>
<Placemark>
<name>大宮区第２１投票区２１－２</name>
<Point>
<coordinates>139.634618465522,35.9004659742642,0</coordinates>
</Point>
</Placemark>
<Placemark>
<name>大宮区第２１投票区２１－４</name>
<Point>
<coordinates>139.629844203252,35.9021240108543,0</coordinates>
</Point>
</Placemark>
<Placemark>
<name>大宮区第２１投票区２１－１</name>
<Point>
<coordinates>139.633658977064,35.9010442129772,0</coordinates>
</Point>
</Placemark>
<Placemark>
<name>大宮区第２１投票区２１－７</name>
<Point>
<coordinates>139.636024958229,35.8984962572892,0</coordinates>
</Point>
</Placemark>
<Placemark>
<name>大宮区第２２投票区２２－２</name>
<Point>
<coordinates>139.639341369135,35.8945318075984,0</coordinates>
</Point>
</Placemark>
<Placemark>
<name>大宮区第２２投票区２２－１</name>
<Point>
<coordinates>139.640872747826,35.8951963943492,0</coordinates>
</Point>
</Placemark>
<Placemark>
<name>大宮区第２２投票区２２－７</name>
<Point>
<coordinates>139.645056056485,35.8912484027407,0</coordinates>
</Point>
</Placemark>
<Placemark>
<name>大宮区第２２投票区２２－５</name>
<Point>
<coordinates>139.645222694931,35.8942740967271,0</coordinates>
</Point>
</Placemark>
<Placemark>
<name>大宮区第１８投票区１８－７</name>
<Point>
<coordinates>139.641129807265,35.9123515887847,0</coordinates>
</Point>
</Placemark>
<Placemark>
<name>大宮区第２投票区２－７</name>
<Point>
<coordinates>139.611520016751,35.9127770787079,0</coordinates>
</Point>
</Placemark>
<Placemark>
<name>大宮区第２投票区２－５</name>
<Point>
<coordinates>139.614259316439,35.9137299514312,0</coordinates>
</Point>
</Placemark>
<Placemark>
<name>大宮区第７投票区７－６</name>
<Point>
<coordinates>139.605925451816,35.8973349307847,0</coordinates>
</Point>
</Placemark>
<Placemark>
<name>大宮区第３投票区３－８</name>
<Point>
<coordinates>139.610828871308,35.9095270275872,0</coordinates>
</Point>
</Placemark>
<Placemark>
<name>大宮区第１７投票区１７－７</name>
<Point>
<coordinates>139.636312398867,35.9090120839151,0</coordinates>
</Point>
</Placemark>
<Placemark>
<name>大宮区第１８投票区１８－２</name>
<Point>
<coordinates>139.644435613001,35.9090711051747,0</coordinates>
</Point>
</Placemark>
<Placemark>
<name>大宮区第２２投票区２２－３</name>
<Point>
<coordinates>139.641697377619,35.894908653841,0</coordinates>
</Point>
</Placemark>
<Placemark>
<name>大宮区第２２投票区２２－４</name>
<Point>
<coordinates>139.643434019985,35.8963272341268,0</coordinates>
</Point>
</Placemark>
<Placemark>
<name>大宮区第２２投票区２２－６</name>
<Point>
<coordinates>139.644024196731,35.8956440502971,0</coordinates>
</Point>
</Placemark>
<Placemark>
<name>大宮区第１２投票区１２－４</name>
<Point>
<coordinates>139.627921741591,35.9068104817375,0</coordinates>
</Point>
</Placemark>
<Placemark>
<name>大宮区第１２投票区１２－２</name>
<Point>
<coordinates>139.626266197686,35.9065158759416,0</coordinates>
</Point>
</Placemark>
<Placemark>
<name>大宮区第１７投票区１７－２</name>
<Point>
<coordinates>139.640149926939,35.9060096585771,0</coordinates>
</Point>
</Placemark>
<Placemark>
<name>大宮区第１１投票区１１－２</name>
<Point>
<coordinates>139.620036373368,35.9061074828898,0</coordinates>
</Point>
</Placemark>
<Placemark>
<name>大宮区第１１投票区１１－４</name>
<Point>
<coordinates>139.622265415955,35.9027406036554,0</coordinates>
</Point>
</Placemark>
<Placemark>
<name>大宮区第１７投票区１７－８</name>
<Point>
<coordinates>139.638547579013,35.9096289993675,0</coordinates>
</Point>
</Placemark>
<Placemark>
<name>大宮区第４投票区４－１</name>
<Point>
<coordinates>139.602891780446,35.908013948797,0</coordinates>
</Point>
</Placemark>
<Placemark>
<name>大宮区第２１投票区２１－８</name>
<Point>
<coordinates>139.631343207242,35.8978542031475,0</coordinates>
</Point>
</Placemark>
<Placemark>
<name>大宮区第２１投票区２１－５</name>
<Point>
<coordinates>139.632940136343,35.8969473385885,0</coordinates>
</Point>
</Placemark>
<Placemark>
<name>大宮区第１２投票区１２－５</name>
<Point>
<coordinates>139.630798470575,35.9074806442474,0</coordinates>
</Point>
</Placemark>
<Placemark>
<name>大宮区第1投票区１－８</name>
<Point>
<coordinates>139.61199615083,35.9180551808454,0</coordinates>
</Point>
</Placemark>
<Placemark>
<name>大宮区第２２投票区２２－８</name>
<Point>
<coordinates>139.636755502966,35.8906707759705,0</coordinates>
</Point>
</Placemark>
<Placemark>
<name>大宮区第１１投票区１１－５</name>
<Point>
<coordinates>139.618546037467,35.9116013515062,0</coordinates>
</Point>
</Placemark>
<Placemark>
<name>大宮区第１９投票区１９－４</name>
<Point>
<coordinates>139.642009603432,35.9090125532931,0</coordinates>
</Point>
</Placemark>
</Folder>
</kml>
