<?xml version="1.0" encoding="UTF-8"?>
<kml xmlns="http://earth.google.com/kml/2.0">
<Folder>
<Placemark>
<name>小前田北公園遊水地北側フェンス</name>
<Point>
<coordinates>139.217075235997,36.1294823388287,0</coordinates>
</Point>
</Placemark>
<Placemark>
<name>道の駅　ひだまりの公園東側植込フェンス</name>
<Point>
<coordinates>139.225845937273,36.1214358596806,0</coordinates>
</Point>
</Placemark>
<Placemark>
<name>ショッピングセンターハーズ側県道脇フェンス</name>
<Point>
<coordinates>139.239972843431,36.1229974033374,0</coordinates>
</Point>
</Placemark>
<Placemark>
<name>花園図書館入り口市道際フェンス</name>
<Point>
<coordinates>139.231582803256,36.1284748961694,0</coordinates>
</Point>
</Placemark>
<Placemark>
<name>小前田駅　構内トイレ南側フェンス</name>
<Point>
<coordinates>139.222269070391,36.1286606409809,0</coordinates>
</Point>
</Placemark>
<Placemark>
<name>野沢商店　西公園フェンス</name>
<Point>
<coordinates>139.277914986087,36.1098031236225,0</coordinates>
</Point>
</Placemark>
<Placemark>
<name>川本サングリーンパーク東側フェンス</name>
<Point>
<coordinates>139.285033011819,36.1116555508115,0</coordinates>
</Point>
</Placemark>
<Placemark>
<name>畠山上郷自治会館南個人宅　北側フェンス</name>
<Point>
<coordinates>139.262071399421,36.1232100088772,0</coordinates>
</Point>
</Placemark>
<Placemark>
<name>薬王寺南市道際フェンス</name>
<Point>
<coordinates>139.253415907079,36.1280976006677,0</coordinates>
</Point>
</Placemark>
<Placemark>
<name>黒田駐在所西国道際</name>
<Point>
<coordinates>139.253091166104,36.1311714178512,0</coordinates>
</Point>
</Placemark>
<Placemark>
<name>重忠公園　東側</name>
<Point>
<coordinates>139.266659544734,36.1277801631437,0</coordinates>
</Point>
</Placemark>
<Placemark>
<name>八幡神社　西側石塀</name>
<Point>
<coordinates>139.279676806938,36.1263340829327,0</coordinates>
</Point>
</Placemark>
<Placemark>
<name>川本農業者トレーニングセンター　北側フェンス</name>
<Point>
<coordinates>139.278142709011,36.1304933962964,0</coordinates>
</Point>
</Placemark>
<Placemark>
<name>春日神社　西側フェンス</name>
<Point>
<coordinates>139.295543300643,36.1284618359708,0</coordinates>
</Point>
</Placemark>
<Placemark>
<name>上郷野菜出荷所南フェンス</name>
<Point>
<coordinates>139.202080557274,36.138298452125,0</coordinates>
</Point>
</Placemark>
<Placemark>
<name>武蔵野自治会館東市道際フェンス</name>
<Point>
<coordinates>139.21433919222,36.1366055362964,0</coordinates>
</Point>
</Placemark>
<Placemark>
<name>流地区ごみ集積所西側　イチジク畑</name>
<Point>
<coordinates>139.215089060903,36.1448220212092,0</coordinates>
</Point>
</Placemark>
<Placemark>
<name>花園公民館　南側フェンス</name>
<Point>
<coordinates>139.22614372879,36.1326293801557,0</coordinates>
</Point>
</Placemark>
<Placemark>
<name>三軒屋バス停北県道際</name>
<Point>
<coordinates>139.22209592012,36.1388893498645,0</coordinates>
</Point>
</Placemark>
<Placemark>
<name>社会福祉事業団花園 西入口脇フェンス</name>
<Point>
<coordinates>139.223637429147,36.1365634577861,0</coordinates>
</Point>
</Placemark>
<Placemark>
<name>花園トレーニングセンター東　入口フェンス</name>
<Point>
<coordinates>139.228610277981,36.1360632296299,0</coordinates>
</Point>
</Placemark>
<Placemark>
<name>持田商店東　市道際畑</name>
<Point>
<coordinates>139.239507965272,36.1340252838483,0</coordinates>
</Point>
</Placemark>
<Placemark>
<name>西ノ皆戸観音堂西　市道際</name>
<Point>
<coordinates>139.233333170587,36.1361851129262,0</coordinates>
</Point>
</Placemark>
<Placemark>
<name>深谷寄居線沿い小池運送北東空き地</name>
<Point>
<coordinates>139.226972424639,36.1427824893399,0</coordinates>
</Point>
</Placemark>
<Placemark>
<name>植木の里公園つつじ植え込み内</name>
<Point>
<coordinates>139.234539832593,36.1452318798312,0</coordinates>
</Point>
</Placemark>
<Placemark>
<name>植木の里東公園駐車場植え込み内</name>
<Point>
<coordinates>139.240077946319,36.1454894005248,0</coordinates>
</Point>
</Placemark>
<Placemark>
<name>花園グリーンセンター　道路東側ハウスの道路際</name>
<Point>
<coordinates>139.2371748159,36.1496368180535,0</coordinates>
</Point>
</Placemark>
<Placemark>
<name>埼玉県花植木流通センター　入口東側フェンス</name>
<Point>
<coordinates>139.237737385847,36.1551973139129,0</coordinates>
</Point>
</Placemark>
<Placemark>
<name>秋山木工所南向いハウス前</name>
<Point>
<coordinates>139.240951782512,36.1574359803648,0</coordinates>
</Point>
</Placemark>
<Placemark>
<name>ふかや緑の王国　正門フェンス</name>
<Point>
<coordinates>139.237553455792,36.158477139762,0</coordinates>
</Point>
</Placemark>
<Placemark>
<name>上永田公民館南排水路側フェンス</name>
<Point>
<coordinates>139.245623471147,36.1368304382961,0</coordinates>
</Point>
</Placemark>
<Placemark>
<name>花園就業改善センター北ネットフェンス</name>
<Point>
<coordinates>139.256322406181,36.1363316628296,0</coordinates>
</Point>
</Placemark>
<Placemark>
<name>花園建材興業事務所　北側ブロック塀</name>
<Point>
<coordinates>139.259214756817,36.1350428123433,0</coordinates>
</Point>
</Placemark>
<Placemark>
<name>北根公民館　北市道際</name>
<Point>
<coordinates>139.253283854732,36.144446617849,0</coordinates>
</Point>
</Placemark>
<Placemark>
<name>上原集会所東側</name>
<Point>
<coordinates>139.271953765861,36.1436207241326,0</coordinates>
</Point>
</Placemark>
<Placemark>
<name>(有)マナベ　南　</name>
<Point>
<coordinates>139.272888912072,36.1391334702221,0</coordinates>
</Point>
</Placemark>
<Placemark>
<name>武川駅渡線橋　南側フェンス</name>
<Point>
<coordinates>139.283170130499,36.1420882456947,0</coordinates>
</Point>
</Placemark>
<Placemark>
<name>ファミリータウン公園西側フェンス</name>
<Point>
<coordinates>139.276334400344,36.1451317729672,0</coordinates>
</Point>
</Placemark>
<Placemark>
<name>武川中央公園北側植え込み</name>
<Point>
<coordinates>139.283363492864,36.1448517632344,0</coordinates>
</Point>
</Placemark>
<Placemark>
<name>川本公民館（ワモア川本）　東植込</name>
<Point>
<coordinates>139.286567109746,36.1399158835455,0</coordinates>
</Point>
</Placemark>
<Placemark>
<name>川本北小学校　南側フェンス</name>
<Point>
<coordinates>139.28741399648,36.144433197599,0</coordinates>
</Point>
</Placemark>
<Placemark>
<name>大谷集落農業センター　西側</name>
<Point>
<coordinates>139.247967400302,36.157410957555,0</coordinates>
</Point>
</Placemark>
<Placemark>
<name>稲荷神社　南東側　ブランコの隣</name>
<Point>
<coordinates>139.251994323142,36.1587157595085,0</coordinates>
</Point>
</Placemark>
<Placemark>
<name>境ふれあいセンター東側の北側</name>
<Point>
<coordinates>139.262751873248,36.1567052385009,0</coordinates>
</Point>
</Placemark>
<Placemark>
<name>田中北自治会第一公民館南個人宅東側　県道沿い空地</name>
<Point>
<coordinates>139.279925415692,36.1470330561422,0</coordinates>
</Point>
</Placemark>
<Placemark>
<name>長在家西公民館　西側フェンス</name>
<Point>
<coordinates>139.284605862901,36.1493557363427,0</coordinates>
</Point>
</Placemark>
<Placemark>
<name>勝福寺南個人宅　東側畑</name>
<Point>
<coordinates>139.273118656206,36.150695852355,0</coordinates>
</Point>
</Placemark>
<Placemark>
<name>善法寺　北側ブロック塀</name>
<Point>
<coordinates>139.292691374195,36.1486836749554,0</coordinates>
</Point>
</Placemark>
<Placemark>
<name>道の駅かわもと　北側フェンス</name>
<Point>
<coordinates>139.288631438268,36.1516388160671,0</coordinates>
</Point>
</Placemark>
<Placemark>
<name>中折之口自治会館　南側フェンス</name>
<Point>
<coordinates>139.284247435103,36.1606123617581,0</coordinates>
</Point>
</Placemark>
<Placemark>
<name>特別養護老人ホームひびき　北側水路</name>
<Point>
<coordinates>139.288743278521,36.1548223228728,0</coordinates>
</Point>
</Placemark>
<Placemark>
<name>春日丘自治会館　北側フェンス</name>
<Point>
<coordinates>139.300170522672,36.1120176852426,0</coordinates>
</Point>
</Placemark>
<Placemark>
<name>熊谷寄居線沿い本田第一自治会館北西個人宅北側ﾌﾞﾛｯｸ塀</name>
<Point>
<coordinates>139.309278765916,36.1312298239283,0</coordinates>
</Point>
</Placemark>
<Placemark>
<name>明戸揚水機場北東個人宅　北側ブロック塀</name>
<Point>
<coordinates>139.306471979811,36.1405785891446,0</coordinates>
</Point>
</Placemark>
<Placemark>
<name>瀬山集会所　東（神社敷地内）</name>
<Point>
<coordinates>139.309440462667,36.1472412442132,0</coordinates>
</Point>
</Placemark>
<Placemark>
<name>本郷南部集会所　南</name>
<Point>
<coordinates>139.213230895738,36.1669302909618,0</coordinates>
</Point>
</Placemark>
<Placemark>
<name>藤田神社　東側石塀</name>
<Point>
<coordinates>139.216705354678,36.1742056314371,0</coordinates>
</Point>
</Placemark>
<Placemark>
<name>ふかや農協櫛挽プラザ　入口東側野建て</name>
<Point>
<coordinates>139.236602139906,36.1650599497829,0</coordinates>
</Point>
</Placemark>
<Placemark>
<name>櫛引中部自治会館　北側</name>
<Point>
<coordinates>139.242663073128,36.1671362505816,0</coordinates>
</Point>
</Placemark>
<Placemark>
<name>櫛挽農民センター　北　揚水場フェンス　</name>
<Point>
<coordinates>139.228770627259,36.1705682269188,0</coordinates>
</Point>
</Placemark>
<Placemark>
<name>本郷学童保育室　南側フェンス</name>
<Point>
<coordinates>139.225803491876,36.1744674078252,0</coordinates>
</Point>
</Placemark>
<Placemark>
<name>緑化センター岡部　北側フェンス</name>
<Point>
<coordinates>139.215749996374,36.1812740120247,0</coordinates>
</Point>
</Placemark>
<Placemark>
<name>ＪＡふかや本郷プラザ　北東フェンス</name>
<Point>
<coordinates>139.220668272554,36.1819559450502,0</coordinates>
</Point>
</Placemark>
<Placemark>
<name>マルツ食品㈱　北側ブロック塀</name>
<Point>
<coordinates>139.241272481068,36.1813167916234,0</coordinates>
</Point>
</Placemark>
<Placemark>
<name>藤沢中学校　東側フェンス</name>
<Point>
<coordinates>139.266937124157,36.1619657026545,0</coordinates>
</Point>
</Placemark>
<Placemark>
<name>藤沢小学校　正門脇フェンス</name>
<Point>
<coordinates>139.268374877769,36.1669930216779,0</coordinates>
</Point>
</Placemark>
<Placemark>
<name>樫合自治会館　北側フェンス</name>
<Point>
<coordinates>139.257552648963,36.1711179093239,0</coordinates>
</Point>
</Placemark>
<Placemark>
<name>新幹線南側の仙元山公園　西側植え込み</name>
<Point>
<coordinates>139.268303461704,36.1741534210834,0</coordinates>
</Point>
</Placemark>
<Placemark>
<name>大沢畜産　東側ブロック塀</name>
<Point>
<coordinates>139.282970030769,36.1631652682471,0</coordinates>
</Point>
</Placemark>
<Placemark>
<name>人見第１自治会館　ブロック塀</name>
<Point>
<coordinates>139.280105977065,36.1741414562057,0</coordinates>
</Point>
</Placemark>
<Placemark>
<name>南通り線　南公園南側フェンス</name>
<Point>
<coordinates>139.293360394503,36.1757255175993,0</coordinates>
</Point>
</Placemark>
<Placemark>
<name>柏合西部南出荷所東　個人宅ﾌﾞﾛｯｸ塀</name>
<Point>
<coordinates>139.257973060516,36.1766979102182,0</coordinates>
</Point>
</Placemark>
<Placemark>
<name>柏合公民館　南側フェンス</name>
<Point>
<coordinates>139.260928742379,36.1792691453052,0</coordinates>
</Point>
</Placemark>
<Placemark>
<name>正智深谷高等学校ｸﾞﾗﾝﾄﾞ　北側フェンス</name>
<Point>
<coordinates>139.272114788876,36.1796255295222,0</coordinates>
</Point>
</Placemark>
<Placemark>
<name>八幡神社　県道沿い境内地入口右側</name>
<Point>
<coordinates>139.269857097988,36.1822187831481,0</coordinates>
</Point>
</Placemark>
<Placemark>
<name>南岡（ﾅﾝｺｳ）自治会館　東側フェンス</name>
<Point>
<coordinates>139.24831639579,36.1884653694701,0</coordinates>
</Point>
</Placemark>
<Placemark>
<name>深谷花卉フラワーパーク南個人宅　西側ブロック塀</name>
<Point>
<coordinates>139.25661211286,36.1870030074683,0</coordinates>
</Point>
</Placemark>
<Placemark>
<name>八幡西浄水場　東側フェンス</name>
<Point>
<coordinates>139.268116162967,36.185721877615,0</coordinates>
</Point>
</Placemark>
<Placemark>
<name>八幡台ふれあいセンター（八幡台自治会館）　フェンス</name>
<Point>
<coordinates>139.268401153491,36.1846147383329,0</coordinates>
</Point>
</Placemark>
<Placemark>
<name>南中学校　西側ブロック塀</name>
<Point>
<coordinates>139.264833718919,36.1888797124899,0</coordinates>
</Point>
</Placemark>
<Placemark>
<name>南中学校東側手押し信号南植え込み</name>
<Point>
<coordinates>139.26953100954,36.1881177256477,0</coordinates>
</Point>
</Placemark>
<Placemark>
<name>旧仙元荘北側ゲートボール場　南側フェンス</name>
<Point>
<coordinates>139.276069621914,36.1768636000763,0</coordinates>
</Point>
</Placemark>
<Placemark>
<name>大台自治会館南　大台公園フェンス</name>
<Point>
<coordinates>139.278888535276,36.182288027245,0</coordinates>
</Point>
</Placemark>
<Placemark>
<name>桜ケ丘公園茶売街道沿い　押切川寄りフェンス</name>
<Point>
<coordinates>139.284393635916,36.1828118876707,0</coordinates>
</Point>
</Placemark>
<Placemark>
<name>上柴クリニック西個人宅　北西側ブロック塀</name>
<Point>
<coordinates>139.281887336273,36.1802248169257,0</coordinates>
</Point>
</Placemark>
<Placemark>
<name>上柴町西4丁目自治会館北東　町裏公園南側フェンス</name>
<Point>
<coordinates>139.297225620592,36.1793028622944,0</coordinates>
</Point>
</Placemark>
<Placemark>
<name>下原公園　北西隅フェンス</name>
<Point>
<coordinates>139.298871558771,36.1759470443468,0</coordinates>
</Point>
</Placemark>
<Placemark>
<name>秋元町ロータリー東側秋元緑地　南側フェンス</name>
<Point>
<coordinates>139.287647783032,36.1827647585025,0</coordinates>
</Point>
</Placemark>
<Placemark>
<name>上宿公園　東側フェンス</name>
<Point>
<coordinates>139.290870264535,36.1803636711267,0</coordinates>
</Point>
</Placemark>
<Placemark>
<name>上柴西小学校　北門脇フェンス</name>
<Point>
<coordinates>139.293105048383,36.1819037398609,0</coordinates>
</Point>
</Placemark>
<Placemark>
<name>上柴中央公園　北側東隅フェンス</name>
<Point>
<coordinates>139.297588764545,36.1827031280089,0</coordinates>
</Point>
</Placemark>
<Placemark>
<name>桜ケ丘小学校北西西側フェンス　小学校前信号寄り</name>
<Point>
<coordinates>139.278868996918,36.1865683537066,0</coordinates>
</Point>
</Placemark>
<Placemark>
<name>ほっともっと深谷上野台店　東側の畑</name>
<Point>
<coordinates>139.274014725702,36.1859325005724,0</coordinates>
</Point>
</Placemark>
<Placemark>
<name>桜ケ丘小学校茶売街道沿い　フェンス東端</name>
<Point>
<coordinates>139.280052751884,36.1850301892889,0</coordinates>
</Point>
</Placemark>
<Placemark>
<name>埼玉県大里農林振興センター　東側フェンス</name>
<Point>
<coordinates>139.274849485179,36.1887782113404,0</coordinates>
</Point>
</Placemark>
<Placemark>
<name>正智深谷高等学校駐車場　南側フェンス</name>
<Point>
<coordinates>139.277309970743,36.1893872162639,0</coordinates>
</Point>
</Placemark>
<Placemark>
<name>下台池公園南側　植え込み前のフェンス</name>
<Point>
<coordinates>139.28249369909,36.1898606418196,0</coordinates>
</Point>
</Placemark>
<Placemark>
<name>泉台公園　北側フェンス</name>
<Point>
<coordinates>139.281130056488,36.1867010339264,0</coordinates>
</Point>
</Placemark>
<Placemark>
<name>上柴住宅団地　西入口フェンス</name>
<Point>
<coordinates>139.291597226179,36.1836496945369,0</coordinates>
</Point>
</Placemark>
<Placemark>
<name>外山公園　東側フェンス</name>
<Point>
<coordinates>139.295341179704,36.185846583875,0</coordinates>
</Point>
</Placemark>
<Placemark>
<name>上柴中学校　北門脇フェンス</name>
<Point>
<coordinates>139.298190411207,36.1844153500934,0</coordinates>
</Point>
</Placemark>
<Placemark>
<name>上柴中学校　南側西隅フェンス</name>
<Point>
<coordinates>139.296252745139,36.1834608171811,0</coordinates>
</Point>
</Placemark>
<Placemark>
<name>空沢公園　東側フェンス</name>
<Point>
<coordinates>139.290106247386,36.1866818206844,0</coordinates>
</Point>
</Placemark>
<Placemark>
<name>市営緑ヶ丘団地　北側フェンス</name>
<Point>
<coordinates>139.287521794314,36.1876337767771,0</coordinates>
</Point>
</Placemark>
<Placemark>
<name>市営住宅団地北側　国済寺公園南側フェンス</name>
<Point>
<coordinates>139.292153732497,36.186864165036,0</coordinates>
</Point>
</Placemark>
<Placemark>
<name>東公園　西端　芝の中に野建て</name>
<Point>
<coordinates>139.298751633681,36.1872245023273,0</coordinates>
</Point>
</Placemark>
<Placemark>
<name>後榛沢関畑集会所　東　市道脇</name>
<Point>
<coordinates>139.198063740481,36.2006094591609,0</coordinates>
</Point>
</Placemark>
<Placemark>
<name>山崎公会堂　西側フェンス</name>
<Point>
<coordinates>139.213775948537,36.1989668204794,0</coordinates>
</Point>
</Placemark>
<Placemark>
<name>岡部中央グラウンド西</name>
<Point>
<coordinates>139.224410878607,36.1928526541295,0</coordinates>
</Point>
</Placemark>
<Placemark>
<name>針ヶ谷岡線沿い昌楽寺東個人宅　東側ブロック塀　</name>
<Point>
<coordinates>139.231337563184,36.1915785073018,0</coordinates>
</Point>
</Placemark>
<Placemark>
<name>旧岡部公民館　北側フェンス</name>
<Point>
<coordinates>139.231753258581,36.2014434511772,0</coordinates>
</Point>
</Placemark>
<Placemark>
<name>ふかや市商工会北部支所　西側フェンス</name>
<Point>
<coordinates>139.234126158404,36.2042356831095,0</coordinates>
</Point>
</Placemark>
<Placemark>
<name>岡部公民館　西側植込</name>
<Point>
<coordinates>139.239014116444,36.2012843373498,0</coordinates>
</Point>
</Placemark>
<Placemark>
<name>後榛沢公会堂　東</name>
<Point>
<coordinates>139.204636039679,36.2060666720935,0</coordinates>
</Point>
</Placemark>
<Placemark>
<name>榛沢学童保育室　南側フェンス</name>
<Point>
<coordinates>139.212540315864,36.2116724504069,0</coordinates>
</Point>
</Placemark>
<Placemark>
<name>横森製作所岡部工場西　市道フェンス</name>
<Point>
<coordinates>139.199263665122,36.2124668235382,0</coordinates>
</Point>
</Placemark>
<Placemark>
<name>大寄八幡神社　南側石塀</name>
<Point>
<coordinates>139.20659593905,36.2132372707966,0</coordinates>
</Point>
</Placemark>
<Placemark>
<name>篠崎自工東交差点個人宅　北側ブロック塀</name>
<Point>
<coordinates>139.221224105136,36.2089750730669,0</coordinates>
</Point>
</Placemark>
<Placemark>
<name>岡部多目的センター跡地　西側フェンス</name>
<Point>
<coordinates>139.243021500927,36.2057691211769,0</coordinates>
</Point>
</Placemark>
<Placemark>
<name>深谷市消防団第13分団向い個人宅　北側ブロック塀</name>
<Point>
<coordinates>139.234002190895,36.2098245594481,0</coordinates>
</Point>
</Placemark>
<Placemark>
<name>ひばりヶ丘公園　南側フェンス</name>
<Point>
<coordinates>139.241753528903,36.2099684348547,0</coordinates>
</Point>
</Placemark>
<Placemark>
<name>沓掛集会所　南（浄化槽前）</name>
<Point>
<coordinates>139.219043893942,36.2124008676819,0</coordinates>
</Point>
</Placemark>
<Placemark>
<name>岡部西小学校　北側フェンス</name>
<Point>
<coordinates>139.235724935031,36.2132630005601,0</coordinates>
</Point>
</Placemark>
<Placemark>
<name>国道17号岡部駅入口信号南個人宅　東側ﾌﾞﾛｯｸ塀　</name>
<Point>
<coordinates>139.239821926463,36.2143838678164,0</coordinates>
</Point>
</Placemark>
<Placemark>
<name>岡廼宮神社（ｵｶﾉﾐﾔｼﾞﾝｼﾞｬ）　南側石塀</name>
<Point>
<coordinates>139.236289526187,36.2172510116008,0</coordinates>
</Point>
</Placemark>
<Placemark>
<name>岡部消防組第一部西個人宅　北側ブロック塀</name>
<Point>
<coordinates>139.23830062953,36.2178934954118,0</coordinates>
</Point>
</Placemark>
<Placemark>
<name>東京成徳大学深谷高等学校　北側フェンスくるりんバス停西側</name>
<Point>
<coordinates>139.260693608354,36.1937338513728,0</coordinates>
</Point>
</Placemark>
<Placemark>
<name>市営宿根住宅入口県道沿いフェンス</name>
<Point>
<coordinates>139.260979272614,36.1910637678533,0</coordinates>
</Point>
</Placemark>
<Placemark>
<name>国道17号宿根交差点南　中山道沿い空き地</name>
<Point>
<coordinates>139.263298947256,36.1962055730308,0</coordinates>
</Point>
</Placemark>
<Placemark>
<name>くれよんかん　北側フェンス</name>
<Point>
<coordinates>139.266449338958,36.195789818885,0</coordinates>
</Point>
</Placemark>
<Placemark>
<name>岡部公会堂　南国道沿い</name>
<Point>
<coordinates>139.254150279824,36.2023249141759,0</coordinates>
</Point>
</Placemark>
<Placemark>
<name>錦町住宅団地前公園フェンス</name>
<Point>
<coordinates>139.269390198619,36.2026739446842,0</coordinates>
</Point>
</Placemark>
<Placemark>
<name>台坂浄水場　フェンス</name>
<Point>
<coordinates>139.275803496011,36.1907001857673,0</coordinates>
</Point>
</Placemark>
<Placemark>
<name>深谷駅北駐車場南側フェンス</name>
<Point>
<coordinates>139.281271541146,36.1918942366555,0</coordinates>
</Point>
</Placemark>
<Placemark>
<name>深谷駅東駐車場　北側フェンス</name>
<Point>
<coordinates>139.282943081311,36.1914059612158,0</coordinates>
</Point>
</Placemark>
<Placemark>
<name>埼玉グランドホテル深谷　北側駐車場フェンス</name>
<Point>
<coordinates>139.284225875536,36.1914654099102,0</coordinates>
</Point>
</Placemark>
<Placemark>
<name>ＪＲ深谷駅南側（駅南ｻｲｼﾝ向い）唐沢川沿いフェンス【道路南側】</name>
<Point>
<coordinates>139.281185302878,36.1909691569246,0</coordinates>
</Point>
</Placemark>
<Placemark>
<name>深谷西幼稚園　西側フェンス</name>
<Point>
<coordinates>139.272819517216,36.1972273691753,0</coordinates>
</Point>
</Placemark>
<Placemark>
<name>深谷市役所東側植込</name>
<Point>
<coordinates>139.282711315967,36.1972378806662,0</coordinates>
</Point>
</Placemark>
<Placemark>
<name>深谷市役所南国道17号線脇</name>
<Point>
<coordinates>139.280811379141,36.1966550344889,0</coordinates>
</Point>
</Placemark>
<Placemark>
<name>群馬銀行深谷店東個人宅　西側フェンス</name>
<Point>
<coordinates>139.280867299268,36.1953320155586,0</coordinates>
</Point>
</Placemark>
<Placemark>
<name>正田眼科東側　第２駐車場北側フェンス</name>
<Point>
<coordinates>139.288171950001,36.1913472374611,0</coordinates>
</Point>
</Placemark>
<Placemark>
<name>荻野整形外科病院前　遊水池フェンス</name>
<Point>
<coordinates>139.29137421941,36.1932618991669,0</coordinates>
</Point>
</Placemark>
<Placemark>
<name>ふれあい公園　南側フェンス</name>
<Point>
<coordinates>139.296235901727,36.1920258203846,0</coordinates>
</Point>
</Placemark>
<Placemark>
<name>フルーツかけがわ東向い　駐車場のフェンス</name>
<Point>
<coordinates>139.288603141337,36.1945385559473,0</coordinates>
</Point>
</Placemark>
<Placemark>
<name>常盤公園　西側フェンス</name>
<Point>
<coordinates>139.298374341261,36.1960888576173,0</coordinates>
</Point>
</Placemark>
<Placemark>
<name>深谷第一高校　北側フェンス</name>
<Point>
<coordinates>139.296982401728,36.1959612678979,0</coordinates>
</Point>
</Placemark>
<Placemark>
<name>深谷第一高校　南門フェンス</name>
<Point>
<coordinates>139.296590287107,36.1942576352449,0</coordinates>
</Point>
</Placemark>
<Placemark>
<name>深谷西小学校　北側フェンス</name>
<Point>
<coordinates>139.274313864691,36.1982437150768,0</coordinates>
</Point>
</Placemark>
<Placemark>
<name>栄町自治会館西水路脇</name>
<Point>
<coordinates>139.275663358827,36.1993499367755,0</coordinates>
</Point>
</Placemark>
<Placemark>
<name>深谷西小学校　西側フェンス北寄り</name>
<Point>
<coordinates>139.272943484725,36.1981889835188,0</coordinates>
</Point>
</Placemark>
<Placemark>
<name>深谷小学校　南門脇フェンス</name>
<Point>
<coordinates>139.28375089133,36.1990541726097,0</coordinates>
</Point>
</Placemark>
<Placemark>
<name>深谷公民館南西角</name>
<Point>
<coordinates>139.283891028514,36.2004032250843,0</coordinates>
</Point>
</Placemark>
<Placemark>
<name>たつみ印刷月極駐車場北側フェンス</name>
<Point>
<coordinates>139.280654398545,36.1997634972954,0</coordinates>
</Point>
</Placemark>
<Placemark>
<name>伊勢之宮神社　東側フェンス</name>
<Point>
<coordinates>139.273258119654,36.2012944858496,0</coordinates>
</Point>
</Placemark>
<Placemark>
<name>フレッセイ田谷店南側市道脇</name>
<Point>
<coordinates>139.283932126438,36.2032085418741,0</coordinates>
</Point>
</Placemark>
<Placemark>
<name>東大沼自治会館東交差点北個人宅　南西ブロック塀</name>
<Point>
<coordinates>139.280609931939,36.2023325254497,0</coordinates>
</Point>
</Placemark>
<Placemark>
<name>城址公園 保健センター 入り口</name>
<Point>
<coordinates>139.286804938717,36.198595300994,0</coordinates>
</Point>
</Placemark>
<Placemark>
<name>旧市民体育館　西側フェンス</name>
<Point>
<coordinates>139.285941208571,36.2006018477196,0</coordinates>
</Point>
</Placemark>
<Placemark>
<name>文化会館　東駐車場　北側フェンス　</name>
<Point>
<coordinates>139.288278400362,36.2003648053193,0</coordinates>
</Point>
</Placemark>
<Placemark>
<name>深谷商業高校　北門脇フェンス</name>
<Point>
<coordinates>139.292582228888,36.1981157664079,0</coordinates>
</Point>
</Placemark>
<Placemark>
<name>深谷外科肛門科病院南　遊歩道フェンス</name>
<Point>
<coordinates>139.294448478891,36.1995112292626,0</coordinates>
</Point>
</Placemark>
<Placemark>
<name>さつき公園　南側フェンス</name>
<Point>
<coordinates>139.296640143605,36.1975521373457,0</coordinates>
</Point>
</Placemark>
<Placemark>
<name>瑠璃光寺　仁王門西駐車場ブロック塀</name>
<Point>
<coordinates>139.289839447747,36.2030577677142,0</coordinates>
</Point>
</Placemark>
<Placemark>
<name>原郷中部自治会館</name>
<Point>
<coordinates>139.297605607957,36.2020835276804,0</coordinates>
</Point>
</Placemark>
<Placemark>
<name>楡山神社　北側</name>
<Point>
<coordinates>139.298718620594,36.2047300398591,0</coordinates>
</Point>
</Placemark>
<Placemark>
<name>岡部小学校　南側フェンス</name>
<Point>
<coordinates>139.246526278008,36.2061493047904,0</coordinates>
</Point>
</Placemark>
<Placemark>
<name>旧岡部農協　北側フェンス</name>
<Point>
<coordinates>139.248219377739,36.2081839262201,0</coordinates>
</Point>
</Placemark>
<Placemark>
<name>谷之自治会館西Ｔ字路個人宅　東側ブロック塀</name>
<Point>
<coordinates>139.264468553756,36.2052562871616,0</coordinates>
</Point>
</Placemark>
<Placemark>
<name>宝蔵院　南側フェンス</name>
<Point>
<coordinates>139.264740743287,36.2136931574646,0</coordinates>
</Point>
</Placemark>
<Placemark>
<name>深谷中学校　正門東側フェンス</name>
<Point>
<coordinates>139.281045165694,36.2068929951372,0</coordinates>
</Point>
</Placemark>
<Placemark>
<name>雷電神社　西側ブロック塀</name>
<Point>
<coordinates>139.278170332206,36.2111563934677,0</coordinates>
</Point>
</Placemark>
<Placemark>
<name>皿沼諏訪神社前</name>
<Point>
<coordinates>139.291923314627,36.2091541038134,0</coordinates>
</Point>
</Placemark>
<Placemark>
<name>大寄小学校　南側フェンス　西端</name>
<Point>
<coordinates>139.272219218028,36.2163110116791,0</coordinates>
</Point>
</Placemark>
<Placemark>
<name>備前渠用水上大橋南個人宅　西側ﾌﾞﾛｯｸ塀</name>
<Point>
<coordinates>139.2794248295,36.218647945131,0</coordinates>
</Point>
</Placemark>
<Placemark>
<name>ひがし公園　南側植込</name>
<Point>
<coordinates>139.303745368345,36.1730606213896,0</coordinates>
</Point>
</Placemark>
<Placemark>
<name>共同生活援助のぞみの園　西側フェンス</name>
<Point>
<coordinates>139.319002804288,36.1754626577164,0</coordinates>
</Point>
</Placemark>
<Placemark>
<name>上柴東小学校　西門脇フェンス</name>
<Point>
<coordinates>139.300889399478,36.1784142516326,0</coordinates>
</Point>
</Placemark>
<Placemark>
<name>上柴東小学校　南側フェンス東寄り</name>
<Point>
<coordinates>139.301802986122,36.1768864413203,0</coordinates>
</Point>
</Placemark>
<Placemark>
<name>つばき保育園・東つばき保育園　専用運動場入口西側フェンス</name>
<Point>
<coordinates>139.305672928366,36.1802375059621,0</coordinates>
</Point>
</Placemark>
<Placemark>
<name>中原公園　東側フェンス</name>
<Point>
<coordinates>139.311462345793,36.1807283888219,0</coordinates>
</Point>
</Placemark>
<Placemark>
<name>柴崎公園　北側フェンス</name>
<Point>
<coordinates>139.30829511068,36.1803875989798,0</coordinates>
</Point>
</Placemark>
<Placemark>
<name>柴崎公園　南側フェンス</name>
<Point>
<coordinates>139.307700201383,36.1795414186426,0</coordinates>
</Point>
</Placemark>
<Placemark>
<name>深谷自動車教習所　北側フェンス東端</name>
<Point>
<coordinates>139.314771065563,36.1774201269035,0</coordinates>
</Point>
</Placemark>
<Placemark>
<name>上柴コミュニテイセンター東側植え込み</name>
<Point>
<coordinates>139.316606997425,36.1773458027025,0</coordinates>
</Point>
</Placemark>
<Placemark>
<name>下原前公園　北側植え込み</name>
<Point>
<coordinates>139.316273497876,36.1784215026784,0</coordinates>
</Point>
</Placemark>
<Placemark>
<name>下原前公園　南西端植え込み</name>
<Point>
<coordinates>139.315566748326,36.1779748370059,0</coordinates>
</Point>
</Placemark>
<Placemark>
<name>深谷自動車教習所　北側フェンス西端</name>
<Point>
<coordinates>139.313536780363,36.1783247011619,0</coordinates>
</Point>
</Placemark>
<Placemark>
<name>篭原電車区東公園　東側フェンス</name>
<Point>
<coordinates>139.321028056096,36.1778555565376,0</coordinates>
</Point>
</Placemark>
<Placemark>
<name>幡羅町自治会館前</name>
<Point>
<coordinates>139.32238159265,36.1801671724201,0</coordinates>
</Point>
</Placemark>
<Placemark>
<name>諏訪公園　南側植込</name>
<Point>
<coordinates>139.304819978004,36.1834405155572,0</coordinates>
</Point>
</Placemark>
<Placemark>
<name>諏訪神社　西側</name>
<Point>
<coordinates>139.303148437839,36.1840397737764,0</coordinates>
</Point>
</Placemark>
<Placemark>
<name>㈱ＬＩＸＩＬサンウエーブ製作所深谷工場　北側東隅フェンス</name>
<Point>
<coordinates>139.309820450033,36.1855761450479,0</coordinates>
</Point>
</Placemark>
<Placemark>
<name>天神公園　南側フェンス</name>
<Point>
<coordinates>139.308960088569,36.1897924919159,0</coordinates>
</Point>
</Placemark>
<Placemark>
<name>川内公園　南側フェンス</name>
<Point>
<coordinates>139.323028379655,36.1837272755069,0</coordinates>
</Point>
</Placemark>
<Placemark>
<name>南下郷自治会館東個人宅　ブロック塀（東側）</name>
<Point>
<coordinates>139.325490212691,36.1851385831985,0</coordinates>
</Point>
</Placemark>
<Placemark>
<name>幡羅小学校　北門脇フェンス</name>
<Point>
<coordinates>139.318044077301,36.1873009922231,0</coordinates>
</Point>
</Placemark>
<Placemark>
<name>東方公園北側フェンス　東端</name>
<Point>
<coordinates>139.314567597152,36.1888615872942,0</coordinates>
</Point>
</Placemark>
<Placemark>
<name>北下郷自治会館西　竹林南側</name>
<Point>
<coordinates>139.322876115214,36.1900252163424,0</coordinates>
</Point>
</Placemark>
<Placemark>
<name>ヤナセ自動車西個人宅　北側フェンス</name>
<Point>
<coordinates>139.304698031704,36.1935950208733,0</coordinates>
</Point>
</Placemark>
<Placemark>
<name>三島公園　東側フェンス</name>
<Point>
<coordinates>139.306762360227,36.1911282917161,0</coordinates>
</Point>
</Placemark>
<Placemark>
<name>上宿前公園　西側南寄りフェンス</name>
<Point>
<coordinates>139.311865913935,36.1912587892538,0</coordinates>
</Point>
</Placemark>
<Placemark>
<name>幡羅中学校　北側フェンス西より</name>
<Point>
<coordinates>139.301086130525,36.1958373026873,0</coordinates>
</Point>
</Placemark>
<Placemark>
<name>幡羅中学校　南側フェンス</name>
<Point>
<coordinates>139.301808376014,36.1942612600346,0</coordinates>
</Point>
</Placemark>
<Placemark>
<name>やよい公園　西側フェンス</name>
<Point>
<coordinates>139.303058157153,36.1965810910069,0</coordinates>
</Point>
</Placemark>
<Placemark>
<name>はたらふれあい館　南側西端に野建て</name>
<Point>
<coordinates>139.311554647689,36.1941307675005,0</coordinates>
</Point>
</Placemark>
<Placemark>
<name>幡羅公民館　門左側植込み</name>
<Point>
<coordinates>139.31456220726,36.195811567195,0</coordinates>
</Point>
</Placemark>
<Placemark>
<name>北川足自治会館北向い個人宅　南側ブロック塀</name>
<Point>
<coordinates>139.321057026764,36.1940647961923,0</coordinates>
</Point>
</Placemark>
<Placemark>
<name>原新田農業集落センター　北側フェンス</name>
<Point>
<coordinates>139.303454314193,36.2017080360968,0</coordinates>
</Point>
</Placemark>
<Placemark>
<name>明戸諏訪神社前</name>
<Point>
<coordinates>139.302583846683,36.2080038060082,0</coordinates>
</Point>
</Placemark>
<Placemark>
<name>明戸諏訪新田集落センター</name>
<Point>
<coordinates>139.311515570974,36.2090355956525,0</coordinates>
</Point>
</Placemark>
<Placemark>
<name>住吉神社東側</name>
<Point>
<coordinates>139.316010740655,36.2052338166191,0</coordinates>
</Point>
</Placemark>
<Placemark>
<name>明戸中学校　正門脇フェンス</name>
<Point>
<coordinates>139.311338378284,36.2188769601288,0</coordinates>
</Point>
</Placemark>
<Placemark>
<name>明戸公民館　南側駐車場東側植込</name>
<Point>
<coordinates>139.318135031724,36.2159591429591,0</coordinates>
</Point>
</Placemark>
<Placemark>
<name>本田ケ谷自治会館　東側ブロック塀</name>
<Point>
<coordinates>139.331272892754,36.2119504094407,0</coordinates>
</Point>
</Placemark>
<Placemark>
<name>諏訪山神社南側</name>
<Point>
<coordinates>139.326357311519,36.2111690774922,0</coordinates>
</Point>
</Placemark>
<Placemark>
<name>堀米農村ｾﾝﾀｰ東　道路北側水路のｶﾞｰﾄﾞﾚｰﾙ</name>
<Point>
<coordinates>139.332247789416,36.2183602259715,0</coordinates>
</Point>
</Placemark>
<Placemark>
<name>西田公会堂　東側フェンス</name>
<Point>
<coordinates>139.221102158837,36.2196071221409,0</coordinates>
</Point>
</Placemark>
<Placemark>
<name>当後浅間神社参道入口東個人宅　北側ﾌﾞﾛｯｸ塀</name>
<Point>
<coordinates>139.227289080777,36.2194650762685,0</coordinates>
</Point>
</Placemark>
<Placemark>
<name>矢島神明社　東側塀　</name>
<Point>
<coordinates>139.255178401667,36.219981803128,0</coordinates>
</Point>
</Placemark>
<Placemark>
<name>町田公民館前　児童遊園地南側フェンス</name>
<Point>
<coordinates>139.248914000033,36.2271065604624,0</coordinates>
</Point>
</Placemark>
<Placemark>
<name>中の家駐車場入口西側フェンス</name>
<Point>
<coordinates>139.255383891288,36.2327470614279,0</coordinates>
</Point>
</Placemark>
<Placemark>
<name>旧八基公民館前　フェンス</name>
<Point>
<coordinates>139.261563402127,36.2330629870136,0</coordinates>
</Point>
</Placemark>
<Placemark>
<name>消防豊里分署　北側フェンス</name>
<Point>
<coordinates>139.267728090765,36.2304098245821,0</coordinates>
</Point>
</Placemark>
<Placemark>
<name>大寄公民館　西側入り口芝の中</name>
<Point>
<coordinates>139.274715411623,36.2227469223081,0</coordinates>
</Point>
</Placemark>
<Placemark>
<name>下妻液化ｶﾞｽ深谷配送ｾﾝﾀｰ向い東個人宅　ﾌﾞﾛｯｸ塀</name>
<Point>
<coordinates>139.289074756861,36.2237415586253,0</coordinates>
</Point>
</Placemark>
<Placemark>
<name>豊里中学校　南側フェンス　西端</name>
<Point>
<coordinates>139.276175398539,36.2299123692488,0</coordinates>
</Point>
</Placemark>
<Placemark>
<name>御嶽大神社　西側石塀</name>
<Point>
<coordinates>139.280179414339,36.2329456019679,0</coordinates>
</Point>
</Placemark>
<Placemark>
<name>深谷大里看護専門学校　東側フェンス</name>
<Point>
<coordinates>139.292273657588,36.2277214267084,0</coordinates>
</Point>
</Placemark>
<Placemark>
<name>ＪＡふかや豊里プラザ　南側フェンス</name>
<Point>
<coordinates>139.293455391344,36.2297040385077,0</coordinates>
</Point>
</Placemark>
<Placemark>
<name>豊里小学校　西側フェンス</name>
<Point>
<coordinates>139.286643241966,36.2336230996504,0</coordinates>
</Point>
</Placemark>
<Placemark>
<name>横瀬本村自治会館西　個人宅　ブロック塀</name>
<Point>
<coordinates>139.248220725212,36.2375006646071,0</coordinates>
</Point>
</Placemark>
<Placemark>
<name>伊勢島自治会館前</name>
<Point>
<coordinates>139.271474065499,36.2399778870275,0</coordinates>
</Point>
</Placemark>
<Placemark>
<name>横瀬新田自治会館　敷地内に野建て</name>
<Point>
<coordinates>139.256030004556,36.2421098004757,0</coordinates>
</Point>
</Placemark>
<Placemark>
<name>下手計新田公民館前</name>
<Point>
<coordinates>139.273465630484,36.2347683109938,0</coordinates>
</Point>
</Placemark>
<Placemark>
<name>吉祥寺北西個人宅　北側ﾌﾞﾛｯｸ塀</name>
<Point>
<coordinates>139.284945426079,36.2407770444039,0</coordinates>
</Point>
</Placemark>
<Placemark>
<name>中瀬グラウンド西側フェンス</name>
<Point>
<coordinates>139.27917150459,36.2398199383651,0</coordinates>
</Point>
</Placemark>
<Placemark>
<name>浄化センター　入口脇フェンス</name>
<Point>
<coordinates>139.299399768158,36.2205648379616,0</coordinates>
</Point>
</Placemark>
<Placemark>
<name>正傳院西由良深谷線沿い個人宅　ﾌﾞﾛｯｸ塀</name>
<Point>
<coordinates>139.304309285765,36.2330256701817,0</coordinates>
</Point>
</Placemark>
<Placemark>
<name>南前小屋集会所　敷地内に野建て</name>
<Point>
<coordinates>139.32145789996,36.2320191959028,0</coordinates>
</Point>
</Placemark>
<Placemark>
<name>摩利支天堂　北側フェンス　西端</name>
<Point>
<coordinates>139.331559230751,36.2278978782976,0</coordinates>
</Point>
</Placemark>
</Folder>
</kml>
